City_ID,City,Lat,Lng,Max Temp,Humidity,Cloudiness,Wind Speed,Country,Date
0,waitangi,-43.9535,-176.5597,11.01,91,100,3.58,NZ,1689956164
1,port-aux-francais,-49.35,70.2167,0.75,64,76,18.44,TF,1689956165
2,calabozo,8.9242,-67.4293,28.49,75,59,3.69,VE,1689956166
3,constitucion,-35.3333,-72.4167,13.09,96,100,5.3,CL,1689956167
4,howrah,22.5892,88.3103,29.0,94,40,2.06,IN,1689955955
5,flying fish cove,-10.4217,105.6791,23.82,83,100,6.69,CX,1689956172
6,sisimiut,66.9395,-53.6735,5.82,95,100,7.05,GL,1689956172
7,grytviken,-54.2811,-36.5092,0.9,98,100,4.28,GS,1689956172
8,fale old settlement,-9.3852,-171.2468,28.33,75,100,3.35,TK,1689956172
9,adamstown,-25.066,-130.1015,20.99,72,59,13.52,PN,1689956173
10,ujae,8.9322,165.7642,28.34,79,100,7.64,MH,1689956173
11,longyearbyen,78.2186,15.6401,7.91,81,75,6.69,SJ,1689956173
12,arraial do cabo,-22.9661,-42.0278,23.92,57,75,6.69,BR,1689956031
13,nuuk,64.1835,-51.7216,6.34,100,100,6.71,GL,1689955932
14,poyarkovo,49.6,128.6833,19.76,40,99,0.99,RU,1689956173
15,askoy,60.4092,5.226,16.12,54,75,3.09,NO,1689956173
16,trenggalek,-8.05,111.7167,20.78,94,7,1.02,ID,1689956174
17,yellowknife,62.456,-114.3525,23.29,60,100,3.58,CA,1689956122
18,kolonia town,6.964,158.206,27.7,83,97,6.47,FM,1689956174
19,proletariy,58.4342,31.7046,18.19,57,77,4.46,RU,1689956174
20,port mathurin,-19.6833,63.4167,23.59,66,1,7.93,MU,1689956174
21,bredasdorp,-34.5322,20.0403,10.15,60,21,2.08,ZA,1689956174
22,tongouson,5.0214,120.1328,28.14,78,82,8.18,PH,1689956174
23,okhotsk,59.3833,143.3,12.41,93,100,2.07,RU,1689956175
24,red bluff,40.1785,-122.2358,32.7,30,0,3.6,US,1689956175
25,san rafael,-34.6177,-68.3301,23.49,14,81,4.19,AR,1689955907
26,chonchi,-42.6128,-73.8092,9.56,90,99,3.69,CL,1689956175
27,udachny,66.4167,112.4,16.92,77,56,3.77,RU,1689956180
28,carnarvon,-24.8667,113.6333,16.13,32,88,9.51,AU,1689956180
29,harlingen,26.1906,-97.6961,34.47,68,0,5.14,US,1689956142
30,kolonia,50.9333,6.95,20.53,57,0,6.17,DE,1689956010
31,tayoltita,24.0833,-105.9333,29.89,43,34,1.58,MX,1689956181
32,ilulissat,69.2167,-51.1,5.01,100,75,3.09,GL,1689956181
33,jamestown,42.097,-79.2353,20.85,88,100,5.14,US,1689955769
34,port hueneme,34.1478,-119.1951,36.22,77,0,2.57,US,1689956181
35,nova sintra,14.8667,-24.7167,23.5,83,23,6.28,CV,1689956182
36,punta arenas,-53.15,-70.9167,-0.94,93,100,6.17,CL,1689956182
37,dame-marie,18.5667,-74.4167,30.13,66,39,1.69,HT,1689956182
38,kilindoni,-7.9139,39.6668,25.85,72,83,9.3,TZ,1689956182
39,blackmans bay,-43.0167,147.3167,7.07,89,48,3.01,AU,1689956182
40,buka,40.8108,69.1986,29.0,20,0,3.48,UZ,1689956183
41,hasaki,35.7333,140.8333,24.61,86,3,3.99,JP,1689956183
42,happy valley-goose bay,53.3168,-60.3315,26.17,50,75,3.09,CA,1689955970
43,hadibu,12.65,54.0333,26.05,76,100,9.39,YE,1689956183
44,pacific grove,36.6177,-121.9166,28.14,100,100,2.06,US,1689955447
45,sola,-13.8833,167.55,25.43,77,87,7.37,VU,1689956184
46,baki,-7.6128,110.7839,21.8,78,4,3.04,ID,1689956184
47,puerto natales,-51.7236,-72.4875,-1.33,96,100,3.42,CL,1689956060
48,qaqortoq,60.7167,-46.0333,6.76,94,99,1.75,GL,1689956184
49,keflavik,64.0049,-22.5624,14.95,82,75,8.75,IS,1689956184
50,wailua homesteads,22.0669,-159.378,26.44,90,75,6.69,US,1689956185
51,sao jose da coroa grande,-8.8978,-35.1478,26.42,58,5,6.51,BR,1689956185
52,kenora,49.8167,-94.4337,23.54,64,20,2.57,CA,1689956185
53,bethel,41.3712,-73.414,28.27,73,40,4.12,US,1689956185
54,anadyr,64.75,177.4833,13.28,94,75,2.0,RU,1689956185
55,iwanai,42.9744,140.5089,15.78,89,4,2.9,JP,1689956186
56,basoko,1.2391,23.616,28.28,66,69,0.73,CD,1689956186
57,kirensk,57.7853,108.1119,16.41,72,22,0.9,RU,1689956186
58,invercargill,-46.4,168.35,0.01,99,21,0.89,NZ,1689956186
59,west island,-12.1568,96.8225,24.99,83,40,7.72,CC,1689956187
60,albany,42.6001,-73.9662,26.14,74,64,1.78,US,1689956003
61,tolanaro,-25.0319,46.9987,18.03,77,100,3.86,MG,1689956187
62,aberdeen,57.1437,-2.0981,16.27,70,40,8.75,GB,1689955971
63,enewetak,11.3474,162.3373,28.25,80,50,7.13,MH,1689956187
64,pasuquin,18.3328,120.6177,27.41,85,2,1.81,PH,1689956187
65,vilyuysk,63.7553,121.6247,12.74,86,11,1.37,RU,1689956188
66,bilibino,68.0546,166.4372,14.77,73,99,0.47,RU,1689956188
67,saldanha,-33.0117,17.9442,11.69,56,29,2.35,ZA,1689956188
68,la ronge,55.1001,-105.2842,21.14,56,75,1.03,CA,1689956188
69,posse,-14.0931,-46.3694,24.47,46,88,6.46,BR,1689956012
70,umluj,25.0213,37.2685,32.38,59,41,3.33,SA,1689956188
71,caleta de carquin,-11.0925,-77.6267,21.28,74,64,4.71,PE,1689956188
72,ushuaia,-54.8,-68.3,-3.13,69,41,1.25,AR,1689955853
73,kodiak,57.79,-152.4072,10.73,87,0,2.57,US,1689956189
74,rolla,37.9514,-91.7713,22.81,80,40,2.57,US,1689956189
75,montecristo,8.2971,-74.4733,34.58,52,100,1.04,CO,1689956189
76,aykhal,66.0,111.5,15.24,86,37,3.77,RU,1689956189
77,key west,24.5557,-81.7826,33.0,68,40,4.63,US,1689956189
78,st. john's,47.5649,-52.7093,29.04,65,20,7.2,CA,1689956189
79,vorgashor,67.5833,63.95,21.58,70,70,1.8,RU,1689956190
80,tchintabaraden,15.8969,5.7985,32.75,42,100,6.78,NE,1689956190
81,iqaluit,63.7506,-68.5145,6.85,81,75,4.12,CA,1689955985
82,kifri,34.6959,44.9661,41.12,8,0,8.28,IQ,1689956190
83,papatowai,-46.5619,169.4708,5.14,73,2,5.53,NZ,1689956190
84,olonkinbyen,70.9221,-8.7187,5.13,79,100,2.14,SJ,1689956164
85,tangalle,6.024,80.7911,29.09,88,77,5.09,LK,1689956191
86,masina,-4.3836,15.3914,34.21,30,19,0.35,CD,1689956191
87,whitehorse,60.7161,-135.0538,17.83,71,75,1.54,CA,1689955467
88,carolina beach,34.0352,-77.8936,32.78,60,17,5.35,US,1689956191
89,castillos,-34.1667,-53.8333,22.23,68,48,5.3,UY,1689956025
90,college,64.8569,-147.8028,18.22,82,20,2.06,US,1689955968
91,shingu,33.7333,135.9833,23.17,91,0,1.72,JP,1689956192
92,dudinka,69.4058,86.1778,21.46,67,100,4.56,RU,1689956192
93,margaret river,-33.95,115.0667,12.09,73,1,2.33,AU,1689956192
94,isla vista,34.4133,-119.861,34.08,82,40,2.57,US,1689956192
95,edinburgh of the seven seas,-37.0676,-12.3116,11.81,63,81,8.88,SH,1689956192
96,avarua,-21.2078,-159.775,20.03,83,75,5.14,CK,1689956149
97,cidade velha,14.9167,-23.6167,31.26,62,40,4.12,CV,1689956193
98,myeik,12.4333,98.6,25.32,87,100,3.2,MM,1689956193
99,mili,6.0815,171.735,28.05,82,100,8.64,MH,1689956193
100,talnakh,69.4865,88.3972,21.23,65,95,4.27,RU,1689956193
101,ancud,-41.8697,-73.8203,10.25,89,99,9.43,CL,1689955978
102,esikhaleni,-28.871,31.8996,15.87,71,52,5.01,ZA,1689956193
103,ust-nera,64.5667,143.2,16.09,87,86,1.63,RU,1689955969
104,lhasa,29.65,91.1,16.12,55,28,1.68,CN,1689956194
105,south hedland,-20.4089,118.5983,18.96,34,0,4.12,AU,1689956194
106,nago,26.5881,127.9761,29.24,82,89,3.16,JP,1689956194
107,totness,5.8833,-56.3167,30.25,63,27,3.87,SR,1689956194
108,el colorado,-26.3081,-59.3729,31.25,37,57,6.92,AR,1689956194
109,pong,19.1493,100.2752,24.72,95,70,0.53,TH,1689956194
110,korla,41.7597,86.1469,33.59,21,94,5.26,CN,1689956194
111,ribeira grande,38.5167,-28.7,22.22,83,75,2.57,PT,1689956195
112,lihue,21.9789,-159.3672,26.77,81,75,6.69,US,1689956018
113,mbekenyera,-10.0,38.9833,24.96,46,100,2.24,TZ,1689956195
114,benguela,-12.5763,13.4055,22.55,67,53,2.97,AO,1689956195
115,rio grande,-32.035,-52.0986,24.06,82,30,6.85,BR,1689956195
116,seminole,28.7086,-81.2081,35.16,68,20,4.63,US,1689956195
117,opuwo,-18.0607,13.84,26.59,11,0,2.04,NA,1689956175
118,isafjordur,66.0755,-23.124,10.02,81,75,4.12,IS,1689956196
119,tromso,69.6496,18.957,16.32,77,75,6.17,NO,1689956196
120,mount gambier,-37.8333,140.7667,8.96,89,100,2.98,AU,1689956196
121,polyarnyy,69.1989,33.4478,9.61,81,97,8.18,RU,1689955992
122,san vicente de canete,-13.0751,-76.3835,21.05,71,27,2.99,PE,1689956196
123,beledweyne,4.7358,45.2036,29.97,49,100,10.23,SO,1689956196
124,mitu,1.1983,-70.1733,27.11,82,41,1.49,CO,1689956196
125,at taj,24.2049,23.2857,39.61,9,0,4.91,LY,1689956196
126,bondo,3.8146,23.6866,29.06,55,27,1.36,CD,1689956196
127,ola,59.5833,151.2833,11.2,96,73,3.5,RU,1689956197
128,makinsk,52.6292,70.4169,16.25,75,94,3.78,KZ,1689956197
129,angaur state,6.906,134.13,27.9,82,99,5.83,PW,1689956197
130,auki,-8.7676,160.7034,24.78,86,81,1.26,SB,1689956043
131,mar del plata,-38.0023,-57.5575,15.05,97,100,3.58,AR,1689956059
132,machagai,-26.9261,-60.0496,31.22,35,87,7.52,AR,1689956197
133,kone,-21.0595,164.8658,15.91,80,45,0.26,NC,1689955846
134,badger,64.8,-147.5333,18.17,86,20,2.06,US,1689956197
135,petropavlovsk-kamchatsky,53.0452,158.6483,11.33,100,20,2.0,RU,1689956197
136,la sarre,48.8002,-79.1996,20.47,53,100,5.14,CA,1689956198
137,kingston,17.997,-76.7936,34.02,61,20,11.32,JM,1689956126
138,stanley,54.868,-1.6985,15.95,79,40,3.6,GB,1689955938
139,mount pearl,47.5166,-52.7813,28.58,64,20,7.2,CA,1689956198
140,andratx,39.5755,2.4202,33.58,75,34,0.84,ES,1689956198
141,al jawf,29.5,38.75,37.11,10,0,1.58,SA,1689956155
142,queenstown,-31.8976,26.8753,9.81,67,81,2.07,ZA,1689956024
143,oranjemund,-28.55,16.4333,14.8,50,0,1.86,NA,1689956083
144,aquin,18.2833,-73.4,30.64,65,57,3.82,HT,1689956198
145,margate,51.3813,1.3862,19.39,57,78,2.24,GB,1689955805
146,mbanza kongo,-6.267,14.2401,31.27,30,31,2.49,AO,1689956199
147,piracicaba,-22.7253,-47.6492,26.91,45,0,1.22,BR,1689956199
148,istaravshan,39.9142,69.0033,25.77,25,0,1.14,TJ,1689956199
149,port lincoln,-34.7333,135.8667,12.74,73,100,5.94,AU,1689955976
150,alo,7.4178,6.7371,29.11,79,92,0.5,NG,1689956199
151,piacabucu,-10.4056,-36.4344,26.32,64,10,6.71,BR,1689956199
152,taroudant,30.4703,-8.877,36.55,25,1,7.74,MA,1689956200
153,dunedin,-45.8742,170.5036,7.11,73,7,3.13,NZ,1689956056
154,minot,48.2325,-101.2963,24.12,50,20,2.57,US,1689956105
155,georgetown,5.4112,100.3354,29.97,82,20,1.54,MY,1689956200
156,narva,59.3772,28.1903,19.24,51,84,3.85,EE,1689955706
157,kendari,-3.945,122.4989,23.22,92,4,1.41,ID,1689956200
158,villa gesell,-37.2639,-56.973,19.47,85,100,7.53,AR,1689955901
159,prince george,53.9166,-122.753,19.58,83,75,0.45,CA,1689955732
160,daru,-9.0763,143.2092,24.97,82,100,6.9,PG,1689956200
161,nar'yan-mar,67.6713,53.087,14.73,83,76,7.42,RU,1689956200
162,remire-montjoly,4.9167,-52.2667,32.02,58,16,5.66,GF,1689956201
163,santa elena de uairen,4.6167,-61.1333,27.26,53,10,4.51,VE,1689956201
164,hawaiian paradise park,19.5933,-154.9731,21.73,94,100,2.57,US,1689956201
165,kapuskasing,49.4169,-82.4331,18.05,59,20,4.12,CA,1689955988
166,thompson,55.7435,-97.8558,23.09,56,75,2.06,CA,1689956201
167,paracatu,-17.2222,-46.8747,24.5,48,92,3.79,BR,1689956201
168,vernon,50.2581,-119.2691,27.18,39,69,1.34,CA,1689955952
169,yanchep,-31.55,115.6833,13.67,81,10,1.63,AU,1689956201
170,puerto ayora,-0.7393,-90.3518,28.98,88,92,3.58,EC,1689956202
171,gdov,58.7406,27.8122,18.96,56,82,5.84,RU,1689956202
172,bodo,67.28,14.405,15.99,87,75,2.57,NO,1689956202
173,port-vila,-17.7338,168.3219,20.28,74,89,2.36,VU,1689956202
174,hobyo,5.3505,48.5268,26.39,79,83,12.71,SO,1689956032
175,koutiala,12.3917,-5.4642,36.45,32,84,0.86,ML,1689956202
176,aasiaat,68.7098,-52.8699,4.5,93,100,8.67,GL,1689956202
177,princeville,45.7668,-61.2985,26.46,80,0,4.63,CA,1689956202
178,iola,37.9245,-95.4,23.03,88,40,4.12,US,1689956202
179,port macquarie,-31.4333,152.9167,7.16,74,3,5.09,AU,1689956045
180,pangody,65.85,74.4859,19.47,72,95,3.92,RU,1689956203
181,halifax,44.6453,-63.5724,22.41,92,82,4.12,CA,1689956167
182,nemuro,43.3236,145.575,14.82,97,8,4.55,JP,1689956203
183,bratsk,56.1325,101.6142,17.27,67,0,1.49,RU,1689956203
184,olonets,60.9847,32.9698,14.68,88,100,4.04,RU,1689956203
185,faya-largeau,17.9257,19.1043,39.89,22,66,3.37,TD,1689956203
186,vilyuchinsk,52.9306,158.4028,12.15,93,45,4.12,RU,1689956203
187,northam,51.0333,-4.2167,17.44,64,78,5.75,GB,1689956043
188,revda,56.801,59.9303,16.91,68,60,3.8,RU,1689956204
189,bukama,-9.2,25.85,31.16,20,16,2.64,CD,1689956204
190,hami,42.8,93.45,32.21,14,0,4.58,CN,1689956204
191,thunder bay,48.4001,-89.3168,23.95,53,20,2.06,CA,1689956204
192,lebu,-37.6167,-73.65,11.73,88,100,6.05,CL,1689956204
193,petrolina,-9.3986,-40.5008,30.03,32,75,6.17,BR,1689956204
194,bama,11.5221,13.6856,35.67,32,41,4.62,NG,1689956204
195,khandyga,62.6667,135.6,13.05,95,100,1.07,RU,1689956205
196,quibala,-10.7337,14.98,27.33,31,24,4.63,AO,1689956205
197,sakakah,29.9697,40.2064,40.76,8,0,3.02,SA,1689956144
198,geidam,12.897,11.9304,34.82,33,69,3.32,NG,1689956205
199,howard springs,-12.497,131.047,22.95,64,6,1.03,AU,1689956205
200,ibarreta,-25.2144,-59.8585,33.47,28,13,8.57,AR,1689956205
201,tiksi,71.6872,128.8694,5.53,74,100,3.31,RU,1689956206
202,port elizabeth,-33.918,25.5701,18.94,72,0,2.57,ZA,1689956004
203,east london,-33.0153,27.9116,14.52,67,0,4.63,ZA,1689956206
204,norrtalje,59.758,18.705,17.1,52,99,2.97,SE,1689956206
205,xining,36.6167,101.7667,14.55,51,1,0.69,CN,1689956150
206,el nido,11.1858,119.3956,26.71,87,97,5.32,PH,1689956206
207,aktau,43.65,51.2,31.32,38,0,2.22,KZ,1689956206
208,natal,-5.795,-35.2094,29.36,61,40,9.26,BR,1689956206
209,coquimbo,-29.9533,-71.3436,14.85,72,75,1.03,CL,1689956206
210,salida,37.7058,-121.0849,28.41,45,0,3.6,US,1689956090
211,port alfred,-33.5906,26.891,17.05,61,63,8.49,ZA,1689956207
212,kotlas,61.2611,46.6556,13.29,96,100,3.49,RU,1689956207
213,sinabang,2.4803,96.3801,26.71,81,45,1.7,ID,1689956207
214,anshun,26.25,105.9333,18.87,95,95,0.93,CN,1689956207
215,kabansk,52.0486,106.6528,12.04,82,13,0.59,RU,1689956207
216,guerrero negro,27.9769,-114.0611,21.81,71,100,4.97,MX,1689956207
217,lubang,13.8584,120.124,28.63,77,68,2.54,PH,1689956208
218,puerto wilches,7.3483,-73.896,33.41,47,95,1.2,CO,1689956208
219,hamilton,39.1834,-84.5333,26.6,66,20,3.6,US,1689955685
220,tondano,1.3038,124.9112,23.05,94,20,1.88,ID,1689956208
221,praia da vitoria,38.7333,-27.0667,22.14,94,40,0.64,PT,1689956028
222,la punta,-33.1837,-66.3127,22.71,32,100,8.47,AR,1689956209
223,dawei,14.0833,98.2,25.32,91,99,1.55,MM,1689956209
224,lesnoy,57.6198,63.0784,17.21,69,79,3.2,RU,1689956209
225,cabo san lucas,22.8909,-109.9124,35.61,63,0,2.06,MX,1689955812
226,uturoa,-16.7333,-151.4333,24.52,62,82,6.73,PF,1689955983
227,tubarjal,30.4999,38.216,37.63,12,0,2.93,SA,1689956209
228,utrik,11.2278,169.8474,28.15,79,93,8.53,MH,1689956209
229,maceio,-9.6658,-35.7353,27.69,65,75,6.69,BR,1689956209
230,champerico,14.3,-91.9167,34.3,65,35,1.78,GT,1689956210
231,khanty-mansiysk,61.0042,69.0019,19.06,100,87,0.0,RU,1689956210
232,salalah,17.0151,54.0924,26.05,100,100,3.09,OM,1689956210
233,guapiles,10.2159,-83.7866,32.94,71,90,2.05,CR,1689956210
234,mahanje,-9.9333,35.3333,18.13,71,88,0.98,TZ,1689956210
235,sandnessjoen,66.0217,12.6316,19.29,77,40,4.63,NO,1689956017
236,acarau,-2.8856,-40.12,31.09,46,6,7.56,BR,1689956049
237,usogorsk,63.4106,48.6872,17.89,82,73,1.98,RU,1689956210
238,newman,37.3138,-121.0208,28.19,19,0,2.47,US,1689956055
239,cidreira,-30.1811,-50.2056,19.73,76,0,5.56,BR,1689956079
240,noosa heads,-26.3833,153.15,12.41,59,5,3.73,AU,1689956211
241,florence,43.7667,11.25,33.82,46,0,4.12,IT,1689956153
242,camana,-16.6228,-72.7111,20.53,66,2,4.58,PE,1689956211
243,fortuna,40.5982,-124.1573,14.25,98,100,2.06,US,1689955850
244,atafu village,-8.5421,-172.5159,28.59,73,96,4.3,TK,1689955978
245,parabel',58.6978,81.4825,19.69,83,85,3.05,RU,1689956211
246,horta,38.5333,-28.6333,21.8,88,75,2.57,PT,1689956212
247,hithadhoo,-0.6,73.0833,28.44,78,89,5.47,MV,1689955974
248,kristiansund,63.1115,7.732,14.03,82,75,2.57,NO,1689956212
249,alice springs,-23.7,133.8833,4.75,81,0,0.0,AU,1689956032
250,zeya,53.75,127.2667,12.57,80,0,2.0,RU,1689956212
251,bikenibeu village,1.3673,173.1241,25.98,94,75,1.03,KI,1689956212
252,minas de marcona,-15.2119,-75.1103,18.68,56,6,5.73,PE,1689955993
253,palikir - national government center,6.9248,158.1611,27.11,83,96,6.03,FM,1689955949
254,tuy hoa,13.0833,109.3,26.24,90,100,0.6,VN,1689956213
255,shwebo,22.5667,95.7,28.27,77,100,1.96,MM,1689956213
256,egilsstadir,65.2653,-14.3948,17.95,48,40,5.66,IS,1689956213
257,codrington,-38.2667,141.9667,8.68,85,99,4.41,AU,1689956213
258,hermanus,-34.4187,19.2345,10.45,65,27,2.03,ZA,1689956213
259,ulaangom,49.9811,92.0667,18.39,58,24,1.14,MN,1689956213
260,masterton,-40.9597,175.6575,7.36,91,91,4.34,NZ,1689956213
261,constantia,44.1833,28.65,27.61,65,0,5.24,RO,1689956213
262,kiunga,-6.1219,141.2906,22.85,97,100,1.68,PG,1689956214
263,sikonge,-5.6333,32.7667,24.88,24,0,2.73,TZ,1689956214
264,crane,31.3974,-102.3501,31.58,35,15,7.3,US,1689956214
265,muroto-misakicho,33.2833,134.15,25.73,88,2,2.54,JP,1689956055
266,ivankiv,50.9386,29.8943,21.65,51,89,3.27,UA,1689956214
267,inhambane,-23.865,35.3833,19.99,68,75,5.66,MZ,1689956214
268,tayaman,13.2295,120.5726,26.95,83,92,1.55,PH,1689956067
269,mogadishu,2.0371,45.3438,25.24,88,55,8.46,SO,1689956215
270,madera,37.1666,-119.8343,36.65,31,0,1.68,US,1689956116
271,el calafate,-50.3408,-72.2768,-0.65,92,100,2.22,AR,1689956215
272,ta`u,-14.2336,-169.5144,27.02,84,26,4.91,AS,1689956215
273,yarmouth,41.7057,-70.2286,27.26,79,0,2.57,US,1689956215
274,luanda,-8.8368,13.2343,25.0,69,20,2.06,AO,1689956215
275,toliara,-23.35,43.6667,20.34,62,6,9.49,MG,1689956215
276,chibougamau,49.9168,-74.3659,16.79,94,100,1.52,CA,1689956216
277,alofi,-19.0595,-169.9187,22.94,94,67,5.14,NU,1689956018
278,amga,60.8953,131.9608,12.28,97,91,1.48,RU,1689956216
279,ulanhot,46.0833,122.0833,19.36,94,100,1.83,CN,1689956216
280,da nang,16.0678,108.2208,29.99,79,40,3.09,VN,1689956216
281,bintulu,3.1667,113.0333,23.23,100,40,1.03,MY,1689956216
282,srivardhan,18.0333,73.0167,26.75,89,100,7.19,IN,1689956216
283,harstad,68.799,16.5293,15.66,97,100,3.13,NO,1689956032
284,gargalianoi,37.0667,21.6333,31.86,55,0,2.34,GR,1689956216
285,huicungo,-7.2833,-76.8,27.14,78,40,2.06,PE,1689956216
286,dryden,49.7833,-92.7503,23.16,60,0,4.63,CA,1689956217
287,fort bragg,35.139,-79.006,32.33,54,0,5.66,US,1689956217
288,fredericton,45.9454,-66.6656,27.68,69,75,5.14,CA,1689956217
289,stephenville,32.2207,-98.2023,34.87,35,0,3.6,US,1689956217
290,bonthe,7.5264,-12.505,26.08,85,100,5.82,SL,1689956217
291,mbandaka,0.0487,18.2603,27.96,56,88,1.04,CD,1689956217
292,pisco,-13.7,-76.2167,20.03,73,100,4.63,PE,1689956217
293,barguzin,53.6167,109.6167,17.22,58,92,1.68,RU,1689956217
294,susuman,62.7833,148.1667,16.97,60,3,3.38,RU,1689956217
295,kodinsk,58.6881,99.1844,19.12,53,0,1.52,RU,1689956218
296,lazaro cardenas,17.9583,-102.2,29.62,72,21,0.93,MX,1689956218
297,cole harbour,44.6724,-63.4751,22.12,91,85,4.12,CA,1689956218
298,sinop,41.7711,34.8709,22.67,69,2,1.75,TR,1689956218
299,neryungri,56.6709,124.6491,11.69,93,95,1.08,RU,1689956218
300,lubango,-14.9172,13.4925,21.7,17,81,2.79,AO,1689956218
301,kununurra,-15.7667,128.7333,16.99,77,4,0.0,AU,1689956218
302,iquitos,-3.7481,-73.2472,29.02,89,75,2.57,PE,1689956219
303,lata,40.1629,-8.3327,22.82,40,23,5.83,PT,1689956219
304,galliano,29.4422,-90.2992,34.44,59,40,2.06,US,1689956219
305,richards bay,-28.783,32.0377,15.63,72,47,3.84,ZA,1689956022
306,timon,-5.0942,-42.8367,32.88,38,75,6.17,BR,1689956219
307,mirny,62.5353,113.9611,20.13,64,89,4.02,RU,1689956000
308,calingasta,-31.3308,-69.4078,20.06,9,98,4.56,AR,1689956219
309,quiindy,-25.9667,-57.2667,30.28,40,14,7.48,PY,1689956219
310,arteche,12.2645,125.4048,25.96,91,75,2.32,PH,1689956219
311,olinda,-8.0089,-34.8553,28.85,58,40,7.2,BR,1689956133
312,new norfolk,-42.7826,147.0587,7.72,87,84,1.22,AU,1689956027
313,colonia,50.9333,6.95,20.53,57,0,6.17,DE,1689956030
314,chinchilla,-26.75,150.6333,10.14,65,5,4.28,AU,1689956220
315,onokhoy,51.932,108.0747,17.86,76,84,1.95,RU,1689956220
316,portland,45.5234,-122.6762,20.32,76,100,2.06,US,1689956016
317,jalai nur,49.45,117.7,17.08,94,100,4.06,CN,1689956078
318,storvreta,59.9667,17.7,18.99,59,40,3.6,SE,1689956220
319,greymouth,-42.4667,171.2,1.49,88,17,3.72,NZ,1689956220
320,kirkintilloch,55.9393,-4.1526,18.78,52,96,5.14,GB,1689956220
321,suva,-18.1416,178.4415,21.63,90,51,1.35,FJ,1689956220
322,lethem,3.3803,-59.7968,32.62,51,11,2.88,GY,1689956221
323,undurkhaan,47.3194,110.6556,14.41,84,83,1.17,MN,1689956221
324,lompoc,34.6391,-120.4579,15.23,100,100,0.0,US,1689955953
325,waddan,29.1614,16.139,38.86,12,0,7.3,LY,1689956221
326,cannonvale,-20.2833,148.7,19.66,80,6,1.21,AU,1689956221
327,pyapon,16.2833,95.6833,26.64,89,100,2.69,MM,1689956221
328,bowen,-20.0167,148.2333,17.47,83,6,2.03,AU,1689956068
329,madhogarh,26.276,79.1869,36.49,40,24,3.06,IN,1689956221
330,severo-yeniseyskiy,60.3725,93.0408,16.73,60,54,1.97,RU,1689956222
331,labrador city,52.9463,-66.9114,19.95,56,75,4.63,CA,1689956222
332,andergrove,-21.0833,149.1833,15.91,82,27,2.74,AU,1689956222
333,arawa,-6.2132,155.5367,24.67,97,100,1.51,PG,1689956222
334,touros,-5.1989,-35.4608,28.31,56,50,8.61,BR,1689956222
335,las vegas,36.175,-115.1372,39.69,16,0,2.57,US,1689955520
336,nova vicosa,-17.8919,-39.3719,23.58,70,100,7.23,BR,1689956009
337,mananara,-16.1667,49.7667,21.54,89,98,3.95,MG,1689956223
338,caspe,41.234,-0.0395,33.03,23,0,3.79,ES,1689956077
339,yenotayevka,47.2456,47.0281,30.37,38,59,3.72,RU,1689956223
340,winnemucca,40.973,-117.7357,29.69,7,0,0.74,US,1689956053
341,san andres,12.5847,-81.7006,31.01,74,20,6.17,CO,1689956224
342,panacan,9.2463,118.4082,26.23,87,100,1.76,PH,1689956224
343,acapulco de juarez,16.8634,-99.8901,31.9,62,75,2.06,MX,1689955948
344,igarka,67.4667,86.5833,19.47,67,87,4.09,RU,1689956224
345,mejit,10.2753,170.8646,28.12,78,98,8.57,MH,1689956224
346,campechuela,20.2342,-77.2789,30.33,70,61,2.17,CU,1689956225
347,monrovia,6.3005,-10.7969,26.87,94,100,4.82,LR,1689955907
348,kalashnikovo,57.2824,35.2262,16.87,56,68,4.05,RU,1689956225
349,mazan,44.0568,5.1275,33.2,20,6,4.43,FR,1689956225
350,colonia menno,-22.3667,-59.8167,34.5,23,0,11.96,PY,1689956225
351,wladyslawowo,54.7909,18.4009,20.26,57,64,4.86,PL,1689956226
352,vorkuta,67.5,64.0,21.98,69,87,2.59,RU,1689956226
353,homer,59.6425,-151.5483,15.43,85,0,2.57,US,1689956226
354,bamboo flat,11.7,92.7167,28.05,83,75,3.6,IN,1689956226
355,malpica,43.3228,-8.8105,23.86,80,1,4.15,ES,1689956226
356,yuzhno-kurilsk,44.0306,145.8556,14.26,97,49,3.8,RU,1689956227
357,santa ana,33.7456,-117.8678,30.59,76,75,3.6,US,1689955873
358,nyala,12.05,24.8833,35.06,30,31,4.0,SD,1689956227
359,kulhudhuffushi,6.6221,73.07,28.05,78,100,7.41,MV,1689956043
360,banda aceh,5.5577,95.3222,27.54,78,100,5.31,ID,1689956096
361,nytva,57.9404,55.334,15.94,83,96,2.07,RU,1689956015
362,tokombere,11.2271,13.4858,28.76,59,61,3.17,NG,1689956227
363,port erin,54.0849,-4.751,16.93,72,20,5.66,IM,1689956227
364,akureyri,65.6835,-18.0878,12.96,71,40,4.63,IS,1689956228
365,rakops,-21.0167,24.3333,16.95,63,65,7.35,BW,1689956228
366,pangai,-19.8,-174.35,23.7,86,17,9.79,TO,1689956228
367,kailua-kona,19.6406,-155.9956,26.44,94,100,2.06,US,1689956228
368,hastings,50.8552,0.5729,19.99,23,67,8.03,GB,1689956228
369,saint-pierre,-21.3393,55.4781,20.87,73,0,2.57,RE,1689956228
370,konstantinovskoye,45.2992,42.6367,28.32,44,10,3.12,RU,1689956228
371,enriquillo,17.9,-71.2333,32.82,61,0,5.95,DO,1689956229
372,arochukwu,5.3898,7.914,25.25,91,100,2.33,NG,1689956229
373,kerikeri,-35.2268,173.9474,10.51,85,98,3.31,NZ,1689956229
374,coron,11.9986,120.2043,26.31,88,100,1.81,PH,1689956229
375,weno,7.4515,151.8468,26.97,94,100,0.0,FM,1689956229
376,sosnovo-ozerskoye,52.5249,111.5418,12.58,64,98,3.32,RU,1689956230
377,prince rupert,54.3161,-130.3201,15.05,90,100,5.14,CA,1689956112
378,williamson,30.6502,-97.6003,34.77,56,0,2.24,US,1689956021
379,aral,40.5156,81.2636,33.22,17,94,5.87,CN,1689956230
380,sao vicente,-23.9631,-46.3919,27.37,69,20,3.09,BR,1689956230
381,nadym,65.5333,72.5167,22.65,55,100,2.29,RU,1689956230
382,slavyanka,42.8633,131.3847,19.31,98,21,1.66,RU,1689956230
383,baiyin,36.5583,104.2081,22.54,26,3,1.8,CN,1689956231
384,duba,27.3513,35.6901,33.93,41,0,3.73,SA,1689956134
385,darazo,10.9938,10.4118,32.65,38,92,4.99,NG,1689956231
386,chahal guatemala,15.75,-89.5667,29.32,67,38,1.51,GT,1689956231
387,teodoro sampaio,-22.5325,-52.1675,27.16,47,0,5.73,BR,1689956231
388,rundu,-17.9333,19.7667,26.22,19,12,2.57,NA,1689956232
389,san patricio,28.017,-97.5169,33.93,49,9,3.23,US,1689956232
390,cardigan,52.0847,-4.6591,20.51,67,98,5.61,GB,1689956232
391,minab,27.1467,57.0801,32.53,70,50,2.77,IR,1689956232
392,sitka,57.0531,-135.33,15.94,82,75,0.0,US,1689956232
393,saint george's,12.0564,-61.7485,30.82,70,20,6.17,GD,1689955378
394,afaahiti,-17.75,-149.2833,18.93,64,43,6.03,PF,1689956233
395,sao raimundo das mangabeiras,-7.0219,-45.4811,33.13,22,0,4.78,BR,1689956233
396,orkney,-26.9802,26.6727,12.44,58,98,5.04,ZA,1689956233
397,chinde,26.8418,88.0763,20.44,89,84,1.73,NP,1689956233
398,broome,42.2506,-75.833,23.27,83,100,4.12,US,1689956234
399,palu,-0.8917,119.8707,24.51,96,89,1.14,ID,1689956234
400,la'ie,21.6477,-157.9253,25.0,87,79,4.02,US,1689956234
401,tapes,-30.6733,-51.3958,20.15,75,2,3.86,BR,1689956207
402,forster,-32.1667,152.5167,11.83,79,61,5.54,AU,1689955991
403,bulgan,48.8125,103.5347,15.28,92,100,1.49,MN,1689956234
404,klyuchi,52.2667,79.1667,20.82,65,75,3.1,RU,1689956002
405,dzhalagash,45.0833,64.6667,30.08,25,8,4.36,KZ,1689956235
406,grand falls-windsor,48.9332,-55.6649,29.17,53,84,1.79,CA,1689956235
407,qui nhon,13.7667,109.2333,26.79,88,99,1.0,VN,1689956235
408,atkarsk,51.8718,45.0078,16.8,85,75,4.96,RU,1689956235
409,los osos,35.3111,-120.8324,29.46,82,0,0.0,US,1689956235
410,onega,63.9061,38.1404,14.26,99,100,1.74,RU,1689956235
411,bozoum,6.3193,16.3799,25.51,87,98,1.37,CF,1689956236
412,iskateley,67.6803,53.1512,14.82,83,73,7.4,RU,1689956236
413,coruripe,-10.1256,-36.1756,25.91,66,24,6.56,BR,1689956236
414,beidao,34.5686,105.8933,21.7,41,0,0.81,CN,1689956236
415,calama,-22.4667,-68.9333,23.27,4,0,1.03,CL,1689956236
416,hirara,24.8,125.2833,28.15,83,20,4.63,JP,1689956237
417,rongelap,11.1635,166.8941,28.51,77,78,8.01,MH,1689956237
418,carutapera,-1.195,-46.02,30.5,54,15,4.36,BR,1689956237
419,sao tome,0.3365,6.7273,24.13,75,82,5.43,ST,1689956237
420,rudbar,30.15,62.6,37.41,12,98,8.44,AF,1689956237
421,severnoye,56.3491,78.3619,19.04,82,58,2.75,RU,1689956238
422,pyhajarvi,67.0701,27.2176,17.56,56,91,4.22,FI,1689956238
423,rajur,20.1167,78.9167,24.79,95,100,6.03,IN,1689956238
424,lander,42.833,-108.7307,24.33,40,0,2.06,US,1689956238
425,pontianak,-0.0333,109.3333,24.99,88,40,1.03,ID,1689956121
426,borkum,53.5809,6.6915,18.3,64,99,6.8,DE,1689956238
427,gamba,-2.65,10.0,22.77,79,87,3.84,GA,1689956239
428,westport,41.1415,-73.3579,28.75,79,0,3.6,US,1689956122
429,vadso,70.0744,29.7487,9.09,81,75,8.23,NO,1689956239
430,juan rodriguez clara,17.9833,-95.4083,27.81,78,92,2.8,MX,1689956239
431,ibitinga,-21.7578,-48.8289,28.28,36,0,3.41,BR,1689956239
432,puerto baquerizo moreno,-0.9,-89.6,26.55,78,75,3.6,EC,1689956052
433,parauapebas,-6.0675,-49.9022,31.99,30,0,4.63,BR,1689956240
434,ha'il,27.5219,41.6907,38.01,10,0,4.12,SA,1689956240
435,belo oriente,-19.22,-42.4836,23.86,61,84,2.75,BR,1689956071
436,paracale,14.2804,122.7881,26.6,88,45,2.02,PH,1689956029
437,puerto deseado,-47.7503,-65.8938,9.97,61,100,4.76,AR,1689956240
438,prince albert,53.2001,-105.7677,21.97,68,0,6.17,CA,1689956123
439,slave lake,55.2834,-114.769,20.99,68,0,1.54,CA,1689956210
440,puerto lempira,15.2667,-83.7667,31.08,66,40,4.12,HN,1689956240
441,fray luis beltran,-39.3167,-65.7667,18.39,36,82,7.78,AR,1689956241
442,puerto el triunfo,13.2833,-88.55,33.01,51,32,2.01,SV,1689956241
443,hwange,-18.3693,26.5019,21.82,46,95,1.92,ZW,1689956241
444,indramayu,-6.3264,108.32,25.45,71,56,3.71,ID,1689956241
445,san antonio de pale,-1.4014,5.6325,23.37,71,79,3.72,GQ,1689956241
446,bethanie,-26.4833,17.15,19.09,9,0,3.98,NA,1689956241
447,vetlanda,57.4289,15.0776,17.25,52,95,4.06,SE,1689956242
448,afif,23.9065,42.9172,35.15,6,97,3.49,SA,1689956242
449,manokwari,-0.8667,134.0833,25.51,81,8,2.19,ID,1689956242
450,khadan khak,30.7477,67.7085,28.26,47,99,1.87,PK,1689956242
451,novyy urengoy,66.0833,76.6333,20.31,70,94,1.91,RU,1689956242
452,ypsonas,34.6884,32.9574,29.54,74,0,6.69,CY,1689956242
453,palmer,42.1584,-72.3287,25.92,78,100,1.34,US,1689956243
454,essaouira,31.5125,-9.77,29.72,48,2,8.23,MA,1689956243
455,tutong,4.8,114.65,25.05,91,100,2.4,BN,1689956243
456,magistral'nyy,56.1725,107.4458,15.16,79,2,1.41,RU,1689956243
457,yangiobod,41.1192,70.0941,22.18,28,0,0.45,UZ,1689956243
458,sant'antioco,39.0664,8.4522,29.98,63,68,4.15,IT,1689956243
459,cururupu,-1.8283,-44.8683,30.77,45,23,3.03,BR,1689956050
460,vetluzhskiy,58.3902,45.4654,17.95,62,72,3.5,RU,1689956244
461,hernando,28.5419,-82.4582,34.36,65,75,5.14,US,1689956244
462,erdenet,49.0333,104.0833,14.04,85,99,1.89,MN,1689956244
463,la passe,45.5549,-0.8967,26.13,60,3,6.74,FR,1689956244
464,palanga,55.9175,21.0686,19.01,59,40,3.09,LT,1689956249
465,manaure,11.7751,-72.4445,32.14,54,4,11.03,CO,1689956249
466,blenheim,-41.516,173.9528,6.4,81,25,0.89,NZ,1689956250
467,safotu,-13.4513,-172.4018,26.97,86,22,2.71,WS,1689956250
468,morehead city,34.7229,-76.726,32.22,67,0,6.69,US,1689956225
469,banff,51.1762,-115.5698,23.2,59,47,2.06,CA,1689956250
470,north bend,43.4065,-124.2243,18.48,88,100,2.06,US,1689956152
471,malvern,34.3623,-92.813,30.73,48,74,2.51,US,1689956250
472,kuta,-8.7233,115.1723,25.0,88,20,1.54,ID,1689956250
473,nuku'alofa,-21.1333,-175.2,22.19,94,40,5.14,TO,1689956155
474,oriximina,-1.7656,-55.8661,32.34,44,68,3.12,BR,1689956251
475,borgarnes,64.5383,-21.9206,17.67,70,97,1.89,IS,1689956251
476,mujiayingzi,42.1167,118.7833,20.53,54,100,1.41,CN,1689956251
477,anloga,5.7947,0.8973,26.57,80,61,7.94,GH,1689956251
478,tazovsky,67.4667,78.7,19.67,61,97,3.69,RU,1689956252
479,sovetskiy,61.3614,63.5842,19.02,67,99,2.93,RU,1689956252
480,gornopravdinsk,60.05,69.9,17.39,90,72,2.17,RU,1689956252
481,balkanabat,39.5108,54.3671,36.5,14,2,3.8,TM,1689956165
482,olyokminsk,60.3736,120.4264,14.69,94,96,1.55,RU,1689956155
483,flekkefjord,58.2971,6.6607,15.53,67,76,5.05,NO,1689956253
484,buriti dos lopes,-3.175,-41.8669,32.86,26,6,2.34,BR,1689956253
485,beau vallon,-20.4189,57.6953,23.13,73,40,3.09,MU,1689956122
486,mana,5.6592,-53.7767,29.18,70,20,4.02,GF,1689956253
487,buala,-8.145,159.5921,26.14,87,76,1.1,SB,1689956253
488,datong,40.0936,113.2914,18.68,84,100,2.64,CN,1689956254
489,san ignacio de velasco,-16.3667,-60.95,32.33,25,0,3.58,BO,1689956254
490,korop,51.5664,32.9586,21.33,53,84,4.59,UA,1689956254
491,bakchar,57.0186,82.0711,17.57,95,54,1.95,RU,1689956254
492,penha,-26.7694,-48.6458,19.93,94,40,4.12,BR,1689956255
493,buritis,-15.6178,-46.4233,25.41,52,92,4.2,BR,1689956186
494,broken hill,-31.95,141.4333,6.33,68,0,0.96,AU,1689956255
495,zaozersk,69.4005,32.4476,9.04,82,100,8.22,RU,1689956255
496,podporozh'ye,60.9112,34.1706,13.24,96,100,2.87,RU,1689956255
497,yemetsk,63.4721,41.7941,15.62,97,100,2.42,RU,1689956255
498,bosaso,11.2842,49.1816,35.51,40,100,5.01,SO,1689956256
499,xapuri,-10.6517,-68.5044,34.3,32,5,1.07,BR,1689956256
500,saipan,15.1355,145.701,27.58,100,20,3.09,MP,1689956041
501,plakhtiyivka,46.1006,29.7217,30.59,27,0,0.33,UA,1689956256
502,port blair,11.6667,92.75,28.02,83,75,3.6,IN,1689956174
503,klaksvik,62.2266,-6.589,14.51,92,35,4.68,FO,1689956256
504,kenai,60.5544,-151.2583,14.52,89,20,0.0,US,1689956256
505,lomza,53.1781,22.0593,22.34,33,96,3.32,PL,1689956257
506,oliveira dos brejinhos,-12.3169,-42.8961,26.94,41,95,5.35,BR,1689956257
507,katsuura,35.1333,140.3,23.32,90,58,4.62,JP,1689956257
508,port saint john's,-31.6229,29.5448,16.85,67,100,7.25,ZA,1689956257
509,dili,-8.5586,125.5736,23.96,69,46,2.2,TL,1689956257
510,moroto,2.5345,34.6666,22.07,67,97,1.56,UG,1689956257
511,ouadda,8.0777,22.4007,24.96,80,89,1.36,CF,1689956258
512,muana,-1.5283,-49.2167,32.46,43,3,1.77,BR,1689956258
513,saqqez,36.2499,46.2735,29.2,19,58,3.92,IR,1689956258
514,belmonte,-15.8631,-38.8828,22.99,85,92,7.6,BR,1689956162
515,dwarka,22.2394,68.9678,28.27,87,100,6.81,IN,1689956258
516,alaverdi,41.0977,44.6732,24.14,76,55,0.17,AM,1689956258
517,lorengau,-2.0226,147.2712,27.37,81,100,2.21,PG,1689956258
518,vila velha,-20.3297,-40.2925,22.97,72,40,4.12,BR,1689955995
519,ebon,4.582,168.6964,26.11,89,100,7.43,MH,1689956258
520,barabai,-2.5833,115.3833,22.89,98,89,1.15,ID,1689956259
521,stronie slaskie,50.2955,16.874,21.81,94,93,1.97,PL,1689956259
522,xingcheng,40.6167,120.7167,22.14,94,100,2.47,CN,1689956259
523,vanino,49.0869,140.2543,19.26,85,99,0.07,RU,1689956259
524,pamandzi,-12.7967,45.2794,25.88,83,75,5.66,YT,1689956259
525,bardai,11.65,7.2333,26.8,53,100,0.8,NG,1689956123
526,ketchikan,55.3422,-131.6461,16.26,88,100,1.54,US,1689956213
527,saint-francois,46.4154,3.9054,24.69,41,0,6.17,FR,1689956188
528,callao,-12.0667,-77.15,24.29,64,100,5.14,PE,1689955720
529,kayangel,8.0823,134.7173,28.44,79,97,6.94,PW,1689956260
530,kruisfontein,-34.0033,24.7314,17.71,59,0,2.7,ZA,1689956260
531,ironwood,46.4547,-90.171,23.64,56,0,2.57,US,1689956260
532,masindi port,1.6961,32.0861,25.11,52,88,0.71,UG,1689956260
533,suhbaatar,50.2314,106.2078,15.68,74,2,2.09,MN,1689956260
534,saynshand,44.8824,110.1163,17.99,71,13,7.64,MN,1689956037
535,aldan,58.6031,125.3894,11.66,97,100,2.64,RU,1689956260
536,al kharj,24.155,47.3346,40.93,6,99,5.34,SA,1689956260
537,waingapu,-9.6567,120.2641,23.19,81,12,5.29,ID,1689956036
538,yonggwang-up,40.0183,127.4547,21.46,95,41,0.78,KP,1689956261
539,malango,-2.9627,119.9001,18.84,98,38,0.56,ID,1689956261
540,santana,-0.0583,-51.1817,31.1,70,20,4.63,BR,1689956043
541,dalandzadgad,43.5708,104.425,23.13,38,83,5.06,MN,1689956073
542,itaituba,-4.2761,-55.9836,34.09,52,20,2.57,BR,1689956068
543,katsuren-haebaru,26.3369,127.8719,29.21,74,20,2.06,JP,1689956261
544,mount isa,-20.7333,139.5,15.87,48,0,8.75,AU,1689956261
545,kismayo,-0.3582,42.5454,25.18,85,11,8.19,SO,1689956261
546,whitefish,48.4111,-114.3376,26.78,45,0,4.12,US,1689956261
547,borogontsy,62.6683,131.1683,11.17,92,68,2.49,RU,1689956262
548,fort st. john,56.2499,-120.8529,18.94,72,75,2.57,CA,1689956003
549,adelaide,-34.9333,138.6,10.18,86,100,3.6,AU,1689956253
550,santa catalina,9.3337,122.8637,26.22,87,99,1.58,PH,1689956262
551,saint-joseph,-21.3667,55.6167,20.26,79,22,5.43,RE,1689956262
552,trinidad,-14.8333,-64.9,30.99,51,0,1.54,BO,1689956262
553,franceville,-1.6333,13.5836,33.76,29,97,1.42,GA,1689956262
554,shenkursk,62.1091,42.896,12.97,95,100,4.4,RU,1689956262
555,pathein,16.7833,94.7333,26.42,90,98,2.27,MM,1689956262
556,sinan,34.8262,126.1086,25.06,85,40,6.22,KR,1689956143
557,vila franca do campo,37.7167,-25.4333,22.23,86,100,0.58,PT,1689956262
558,tekkekoy,41.2117,36.46,26.86,61,0,1.03,TR,1689956263
559,barreiros,-8.8183,-35.1864,26.67,55,9,5.98,BR,1689956263
560,port-cartier,50.0334,-66.8654,21.53,59,74,3.23,CA,1689956263
561,svay rieng,11.0879,105.7993,26.25,83,100,5.11,KH,1689956263
562,antalaha,-14.9003,50.2788,22.07,85,100,4.36,MG,1689956263
563,kichmengskiy gorodok,59.9816,45.7854,15.12,89,100,3.32,RU,1689956263
564,wschowa,51.807,16.3166,16.63,75,100,5.79,PL,1689956263
565,puerto san jose,13.9256,-90.8244,30.53,58,62,0.55,GT,1689956263
566,riohacha,11.5444,-72.9072,33.53,52,7,7.69,CO,1689956263
567,demidov,55.2706,31.515,18.29,52,97,4.69,RU,1689956264
568,marsabit,2.3284,37.9899,24.68,36,31,7.45,KE,1689956153
569,barcelos,41.5388,-8.6151,25.51,59,45,4.66,PT,1689956151
570,kalmunai,7.4167,81.8167,29.57,51,99,5.95,LK,1689956264
571,desert hot springs,33.9611,-116.5017,40.79,26,0,2.57,US,1689956264
572,wenchang,30.904,118.4887,26.54,91,90,1.54,CN,1689956264
573,bahce,37.1972,36.5766,28.85,53,0,3.89,TR,1689956264
574,argo,37.6333,22.7333,33.21,32,7,2.18,GR,1689956264
575,pavlovsk,50.4578,40.1081,21.52,70,33,5.64,RU,1689956264
576,boali,4.8005,18.1275,26.36,85,94,0.46,CF,1689956264
